{"Extract of the Eternal":{"Name":"Extract of the Eternal","Region":"Isles","Tier":"Uncommon","Type":"Potion","Location":"Hekawt","Effects":["Regeneration 1 - 40:00","Haste 1 - 40:00"]},"Glory to the Eternal":{"Name":"Glory to the Eternal","Region":"Isles","Tier":"Uncommon","Type":"Potion","Location":"Hekawt","Effects":["Absorption 5 - 00:30","Instant Drink","Starvation 20"]},"Manna Dew":{"Name":"Manna Dew","Region":"Isles","Tier":"Uncommon","Type":"Lingering","Location":"Hekawt","Effects":["Absorption 1 - 00:15","Saturation - 00:00"]},"Riftwalker Elixir":{"Name":"Riftwalker Elixir","Region":"Isles","Tier":"Uncommon","Type":"Potion","Location":"Eldrask","Effects":["Speed 1 - 60:00","Strength 1 - 60:00"]},"Spirits of the Song":{"Name":"Spirits of the Song","Region":"Isles","Tier":"Uncommon","Type":"Potion","Location":"Eldrask","Effects":["Resistance 1 - 10:00","Haste 2 - 10:00"]},"Titanic Steel":{"Name":"Titanic Steel","Region":"Isles","Tier":"Uncommon","Type":"Splash","Location":"Eldrask","Effects":["Resistance 1 - 10:00","Health Boost 1 - 10:00"]},"Bathypelagic Brew":{"Name":"Bathypelagic Brew","Region":"Isles","Tier":"Uncommon","Type":"Splash","Location":"Depths","Effects":["Regeneration 1 - 04:00","Resistance 1 - 10:00","Conduit Power - 10:00"]},"Epipelagic Essence":{"Name":"Epipelagic Essence","Region":"Isles","Tier":"Uncommon","Type":"Splash","Location":"Depths","Effects":"Regeneration 3 - 00:30"},"Hadopelagic Tincture":{"Name":"Hadopelagic Tincture","Region":"Isles","Tier":"Uncommon","Type":"Splash","Location":"Depths","Effects":["Regeneration 2 - 01:30","Fire Resistance - 01:30"]},"Dragonbone Marrow":{"Name":"Dragonbone Marrow","Region":"Isles","Tier":"Uncommon","Type":"Lingering","Location":"Remorse","Effects":["Instant Health 3","Regeneration 1 - 00:07"]},"Dragonrage Brew":{"Name":"Dragonrage Brew","Region":"Isles","Tier":"Uncommon","Type":"Splash","Location":"Remorse","Effects":["Absorption 2 - 00:30","Speed 2 - 00:30","Strength 2 - 00:30","Haste 3 - 00:30"]},"Ascension Platform":{"Name":"Ascension Platform","Region":"Isles","Tier":"Uncommon","Type":"Lingering","Location":"Rush","Effects":["Resistance 1 - 00:05","Jump Boost 8 - 00:01"]},"Dark Thunder":{"Name":"Dark Thunder","Region":"Isles","Tier":"Uncommon","Type":"Potion","Location":"Rush","Effects":["Instant Health 2","Instant Drink","Speed 7 - 00:13","Mining Fatigue 7 - 00:13"]},"Twisted Tapache":{"Name":"Twisted Tapache","Region":"Isles","Tier":"-","Type":"Potion","Location":"Delves","Effects":["Regeneration 1 - 10:00","Health Boost 1 - 10:00","Strength 1 - 10:00"]},"Advanced Extinguisher":{"Name":"Advanced Extinguisher","Region":"Isles","Tier":"-","Type":"Splash","Location":"Docks","Effects":"Fire Resistance - 00:20"},"Inner Flame":{"Name":"Inner Flame","Region":"Isles","Tier":"-","Type":"Splash","Location":"Docks","Effects":["Regeneration 1 - 00:20","Fire Resistance - 00:20"]},"Pineapple Extract":{"Name":"Pineapple Extract","Region":"Isles","Tier":"-","Type":"Splash","Location":"Docks","Effects":["Regeneration 2 - 00:15","Speed 1 - 00:15"]},"Potion of Greater Salvation":{"Name":"Potion of Greater Salvation","Region":"Isles","Tier":"-","Type":"Splash","Location":"Docks","Effects":["Instant Health 3","Regeneration 2 - 00:05"]},"Water Balloon":{"Name":"Water Balloon","Region":"Isles","Tier":"-","Type":"Splash","Location":"Purple","Effects":""},"Elixir of Exorcism":{"Name":"Elixir of Exorcism","Region":"Isles","Tier":"-","Type":"Lingering","Location":"Gray","Effects":["Regeneration 1 - 01:00","Weakness 1 - 00:01"]},"Floral Milk Tea":{"Name":"Floral Milk Tea","Region":"Isles","Tier":"Patron","Type":"Potion","Location":"Isles Overworld","Effects":["Regeneration 1 - 60:00","Strength 1 - 60:00"]},"Waycrystal Extract":{"Name":"Waycrystal Extract","Region":"Isles","Tier":"Uncommon","Type":"Potion","Location":"Isles Overworld","Effects":["Speed 2 - 10:00","Water Breathing - 10:00"]},"Blinding Potion":{"Name":"Blinding Potion","Region":"Valley","Tier":"-","Type":"Splash","Location":"Willows","Effects":["Slowness 4 - 01:00","Blindness - 01:00"]},"Blur Brew":{"Name":"Blur Brew","Region":"Isles","Tier":"-","Type":"Potion","Location":"Isles Overworld","Effects":["Speed 3 - 00:40","Haste 3 - 00:40","Jump Boost 3 - 00:40"]},"Brittle-Ice Brew":{"Name":"Brittle-Ice Brew","Region":"Isles","Tier":"-","Type":"Potion","Location":"Isles Overworld","Effects":["Fire Resistance - 01:00","Slowness 1 - 01:00"]},"Charger's Lager":{"Name":"Charger's Lager","Region":"Isles","Tier":"-","Type":"Potion","Location":"Isles Overworld","Effects":["Regeneration 1 - 00:30","Strength 2 - 00:30","Slowness 10 - 00:05","Weakness 10 - 00:05","Nausea - 00:05"]},"Chillwind Cocktail":{"Name":"Chillwind Cocktail","Region":"Isles","Tier":"-","Type":"Potion","Location":"Isles Overworld","Effects":["Strength 1 - 01:30","Haste 1 - 04:00","Night Vision - 04:00","Nausea - 00:10"]},"Crow's Nest Concoction":{"Name":"Crow's Nest Concoction","Region":"Isles","Tier":"-","Type":"Potion","Location":"Isles Overworld","Effects":["Saturation - 00:03","Speed 1 - 01:00","Strength 1 - 01:00","Haste 1 - 01:00","Night Vision - 01:00"]},"Depth Lurker":{"Name":"Depth Lurker","Region":"Isles","Tier":"-","Type":"Potion","Location":"Isles Overworld","Effects":"Water Breathing - 09:00"},"Elixir of Draining Life":{"Name":"Elixir of Draining Life","Region":"Isles","Tier":"-","Type":"Splash","Location":"Isles Overworld","Effects":["Slowness 1 - 00:30","Poison 2 - 00:30"]},"Enderpox":{"Name":"Enderpox","Region":"Isles","Tier":"-","Type":"Potion","Location":"Isles Overworld","Effects":["Regeneration 1 - 00:30","Resistance 1 - 00:30","Weakness 1 - 00:30"]},"Fever Buster":{"Name":"Fever Buster","Region":"Isles","Tier":"-","Type":"Potion","Location":"Isles Overworld","Effects":["Strength 1 - 00:30","Fire Resistance - 00:30"]},"Fresh Salty Swill":{"Name":"Fresh Salty Swill","Region":"Isles","Tier":"-","Type":"Potion","Location":"Isles Overworld","Effects":["Resistance 1 - 00:40","Speed 2 - 00:20","Nausea - 00:03"]},"Gate's Ale":{"Name":"Gate's Ale","Region":"Isles","Tier":"-","Type":"Potion","Location":"Isles Overworld","Effects":["Resistance 2 - 00:30","Speed 2 - 00:30","Nausea - 00:10","Hunger 2 - 00:30"]},"Golden Ale":{"Name":"Golden Ale","Region":"Isles","Tier":"-","Type":"Potion","Location":"Isles Overworld","Effects":["Resistance 1 - 00:30","Haste 2 - 00:30","Nausea - 00:02"]},"Guard's Chill":{"Name":"Guard's Chill","Region":"Isles","Tier":"-","Type":"Potion","Location":"Isles Overworld","Effects":["Resistance 1 - 01:30","Strength 1 - 01:30","Glowing - 01:30"]},"Hangover Cure":{"Name":"Hangover Cure","Region":"Isles","Tier":"-","Type":"Potion","Location":"Isles Overworld","Effects":"Saturation - 00:00"},"Health Pot":{"Name":"Health Pot","Region":"Isles","Tier":"-","Type":"Potion","Location":"Isles Overworld","Effects":["Health Boost 1 - 10:00","Instant Drink"]},"Myriad's Martini":{"Name":"Myriad's Martini","Region":"Isles","Tier":"-","Type":"Potion","Location":"Isles Overworld","Effects":["Resistance 1 - 00:30","Absorption 1 - 00:30","Fire Resistance - 00:30","Nausea - 00:10"]},"Pirate's Brew":{"Name":"Pirate's Brew","Region":"Isles","Tier":"-","Type":"Potion","Location":"Isles Overworld","Effects":["Strength 1 - 04:00","Haste 1 - 04:00"]},"Potion of Swiftness":{"Name":"Potion of Swiftness","Region":"Isles","Tier":"-","Type":"Potion","Location":"Isles Overworld","Effects":"Speed 2 - 01:30"},"Rakija":{"Name":"Rakija","Region":"Isles","Tier":"-","Type":"Potion","Location":"Isles Overworld","Effects":["Strength 1 - 00:20","Haste 3 - 00:20","Nausea - 00:05"]},"River's Malt":{"Name":"River's Malt","Region":"Isles","Tier":"-","Type":"Potion","Location":"Isles Overworld","Effects":["Regeneration 1 - 00:45","Health Boost 2 - 00:45"]},"Rose Wine":{"Name":"Rose Wine","Region":"Isles","Tier":"-","Type":"Potion","Location":"Isles Overworld","Effects":["Resistance 1 - 03:00","Health Boost 1 - 03:00"]},"Royalty's Stout":{"Name":"Royalty's Stout","Region":"Isles","Tier":"-","Type":"Potion","Location":"Isles Overworld","Effects":["Regeneration 1 - 01:00","Strength 2 - 01:00","Mining Fatigue 1 - 01:00"]},"Saltwater Pint":{"Name":"Saltwater Pint","Region":"Isles","Tier":"-","Type":"Potion","Location":"Isles Overworld","Effects":["Water Breathing - 03:00","Night Vision - 03:00"]},"Sea Gills":{"Name":"Sea Gills","Region":"Isles","Tier":"-","Type":"Potion","Location":"Isles Overworld","Effects":"Water Breathing - 10:00"},"The Ex-Wife":{"Name":"The Ex-Wife","Region":"Isles","Tier":"-","Type":"Potion","Location":"Isles Overworld","Effects":["Blindness - 00:30","Hunger 2 - 00:30","Wither 2 - 00:30","Bad Luck 2 - 00:30"]},"Waterwalking Elixir":{"Name":"Waterwalking Elixir","Region":"Isles","Tier":"-","Type":"Potion","Location":"Isles Overworld","Effects":["Speed 2 - 03:00","Conduit Power - 03:00"]},"Advanced Extinguisher Bomb":{"Name":"Advanced Extinguisher Bomb","Region":"Isles","Tier":"Tier 5","Type":"Lingering","Location":"Celsian Isles","Effects":["Absorption 1 - 00:05","Fire Resistance - 00:05"]},"Empowered Azure Mixture":{"Name":"Empowered Azure Mixture","Region":"Isles","Tier":"Tier 5","Type":"Potion","Location":"Celsian Isles","Effects":["Speed 2 - 04:40","Haste 1 - 04:40"]},"Potion of Redemption":{"Name":"Potion of Redemption","Region":"Isles","Tier":"Tier 5","Type":"Splash","Location":"Celsian Isles","Effects":["Instant Health 3","Absorption 1 - 00:03"]},"Strong Potion of Protection":{"Name":"Strong Potion of Protection","Region":"Isles","Tier":"Tier 5","Type":"Splash","Location":"Celsian Isles","Effects":"Absorption 3 - 01:00"},"Strong Potion of Warcry":{"Name":"Strong Potion of Warcry","Region":"Isles","Tier":"Tier 5","Type":"Potion","Location":"Celsian Isles","Effects":["Instant Health 3","Instant Drink","Strength 2 - 01:30"]},"Azure Mixture":{"Name":"Azure Mixture","Region":"Isles","Tier":"-","Type":"Potion","Location":"Celsian Isles","Effects":["Speed 1 - 04:40","Haste 1 - 04:40"]},"Deadly Poison":{"Name":"Deadly Poison","Region":"Isles","Tier":"-","Type":"Potion","Location":"Celsian Isles","Effects":"Poison 10 - 01:00"},"Extinguisher Bomb":{"Name":"Extinguisher Bomb","Region":"Isles","Tier":"-","Type":"Lingering","Location":"Celsian Isles","Effects":"Fire Resistance - 00:03"},"Potion of Warcry":{"Name":"Potion of Warcry","Region":"Isles","Tier":"-","Type":"Potion","Location":"Celsian Isles","Effects":["Instant Health 2","Instant Drink","Strength 1 - 03:00"]},"Restorative Shield":{"Name":"Restorative Shield","Region":"Isles","Tier":"-","Type":"Splash","Location":"Celsian Isles","Effects":["Regeneration 1 - 01:00","Resistance 1 - 00:35"]},"Strong Restorative Shield":{"Name":"Strong Restorative Shield","Region":"Isles","Tier":"-","Type":"Splash","Location":"Celsian Isles","Effects":["Regeneration 2 - 00:30","Resistance 1 - 00:45"]},"Weak Azure Mixture":{"Name":"Weak Azure Mixture","Region":"Isles","Tier":"-","Type":"Potion","Location":"Celsian Isles","Effects":["Speed 1 - 02:30","Haste 1 - 02:30"]},"Weak Restorative Shield":{"Name":"Weak Restorative Shield","Region":"Isles","Tier":"-","Type":"Splash","Location":"Celsian Isles","Effects":["Regeneration 1 - 00:50","Resistance 1 - 00:25"]},"Earth's Might":{"Name":"Earth's Might","Region":"Valley","Tier":"Uncommon","Type":"Splash","Location":"Kaul","Effects":["Resistance 2 - 02:00","Health Boost 1 - 02:00"]},"Flame's Wrath":{"Name":"Flame's Wrath","Region":"Valley","Tier":"Uncommon","Type":"Potion","Location":"Kaul","Effects":["Instant Health 3","Absorption 2 - 01:00","Strength 2 - 01:00","Fire Resistance - 01:00"]},"Fury of the Elements":{"Name":"Fury of the Elements","Region":"Valley","Tier":"Uncommon","Type":"Potion","Location":"Kaul","Effects":["Regeneration 2 - 06:00","Absorption 2 - 06:00","Speed 1 - 06:00","Fire Resistance - 06:00","Water Breathing - 06:00"]},"Water's Blessing":{"Name":"Water's Blessing","Region":"Valley","Tier":"Uncommon","Type":"Potion","Location":"Kaul","Effects":["Regeneration 3 - 00:15","Health Boost 1 - 10:00","Speed 1 - 10:00","Water Breathing - 10:00"]},"Wind's Strength":{"Name":"Wind's Strength","Region":"Valley","Tier":"Uncommon","Type":"Splash","Location":"Kaul","Effects":["Absorption 1 - 01:00","Speed 2 - 05:00","Haste 2 - 05:00"]},"Burn Panacea":{"Name":"Burn Panacea","Region":"Valley","Tier":"Uncommon","Type":"Potion","Location":"Verdant","Effects":["Regeneration 4 - 00:05","Strength 1 - 00:15"]},"No Step Back":{"Name":"No Step Back","Region":"Valley","Tier":"Uncommon","Type":"Potion","Location":"Verdant","Effects":["Instant Health 3","Fire Resistance - 00:10"]},"Remnant Elixir":{"Name":"Remnant Elixir","Region":"Valley","Tier":"Uncommon","Type":"Potion","Location":"Verdant","Effects":["Instant Health 3","Speed 1 - 00:20"]},"Viridescent Cure":{"Name":"Viridescent Cure","Region":"Valley","Tier":"Uncommon","Type":"Potion","Location":"Verdant","Effects":["Instant Health 3","Resistance 1 - 00:05"]},"C'Axtal's Blessing":{"Name":"C'Axtal's Blessing","Region":"Valley","Tier":"Uncommon","Type":"Potion","Location":"Sanctum","Effects":["Instant Health 2","Health Boost 1 - 10:00","Strength 1 - 10:00"]},"C'Shura's Fury":{"Name":"C'Shura's Fury","Region":"Valley","Tier":"Uncommon","Type":"Potion","Location":"Sanctum","Effects":["Instant Health 2","Speed 3 - 10:00","Haste 1 - 10:00","Water Breathing - 10:00"]},"C'Zanil's Transgression":{"Name":"C'Zanil's Transgression","Region":"Valley","Tier":"Uncommon","Type":"Splash","Location":"Sanctum","Effects":["Instant Health 3","Strength 2 - 00:10"]},"Elemental Resin":{"Name":"Elemental Resin","Region":"Valley","Tier":"Uncommon","Type":"Potion","Location":"Sanctum","Effects":["Regeneration 1 - 01:00","Resistance 1 - 01:00"]},"Essence of Arachnid":{"Name":"Essence of Arachnid","Region":"Valley","Tier":"Rare","Type":"Potion","Location":"Corridors","Effects":["Speed 1 - 20:00","Haste 2 - 20:00","Jump Boost 2 - 20:00"]},"Essence of Flame":{"Name":"Essence of Flame","Region":"Valley","Tier":"Rare","Type":"Potion","Location":"Corridors","Effects":["Absorption 1 - 12:00","Strength 2 - 12:00","Fire Resistance - 12:00"]},"Essence of Frost":{"Name":"Essence of Frost","Region":"Valley","Tier":"Rare","Type":"Potion","Location":"Corridors","Effects":["Regeneration 1 - 20:00","Health Boost 3 - 20:00","Slowness 1 - 20:00"]},"Essence of Sand":{"Name":"Essence of Sand","Region":"Valley","Tier":"Rare","Type":"Potion","Location":"Corridors","Effects":["Resistance 1 - 20:00","Absorption 4 - 03:00","Glowing - 20:00"]},"Essence of the Spirits":{"Name":"Essence of the Spirits","Region":"Valley","Tier":"Rare","Type":"Potion","Location":"Corridors","Effects":["Instant Health 1","Regeneration 1 - 120:00","Night Vision - 120:00","Glowing - 120:00"]},"Essence of Water":{"Name":"Essence of Water","Region":"Valley","Tier":"Rare","Type":"Potion","Location":"Corridors","Effects":["Resistance 1 - 24:00","Water Breathing - 24:00","Night Vision - 24:00"]},"Potion of Annihilation":{"Name":"Potion of Annihilation","Region":"Valley","Tier":"-","Type":"Splash","Location":"Willows","Effects":["Instant Damage 2","Blindness - 00:45","Hunger 4 - 00:45","Wither 3 - 00:45"]},"Mana Potion":{"Name":"Mana Potion","Region":"Valley","Tier":"Uncommon","Type":"Potion","Location":"Light Blue","Effects":["Regeneration 1 - 06:00","Health Boost 1 - 06:00","Haste 2 - 06:00"]},"Corrupted Potion":{"Name":"Corrupted Potion","Region":"Valley","Tier":"-","Type":"Splash","Location":"Magenta","Effects":["Instant Damage 1","Blindness - 00:15","Poison 1 - 00:15"]},"Venom":{"Name":"Venom","Region":"Valley","Tier":"-","Type":"Splash","Location":"Labs","Effects":["Slowness 3 - 00:05","Weakness 3 - 00:05"]},"Amnesia":{"Name":"Amnesia","Region":"Valley","Tier":"Uncommon","Type":"Potion","Location":"Valley Overworld","Effects":["Regeneration 1 - 04:00","Strength 1 - 04:00","Fire Resistance - 00:30"]},"Eggnog":{"Name":"Eggnog","Region":"Valley","Tier":"Uncommon","Type":"Potion","Location":"Valley Overworld","Effects":["Instant Health 1","Regeneration 1 - 00:18","Haste 2 - 00:18"]},"Hot Chocolate":{"Name":"Hot Chocolate","Region":"Valley","Tier":"Uncommon","Type":"Potion","Location":"Valley Overworld","Effects":["Instant Health 1","Regeneration 1 - 00:18","Fire Resistance - 00:18"]},"Soul Barrier":{"Name":"Soul Barrier","Region":"Valley","Tier":"Uncommon","Type":"Splash","Location":"Valley Overworld","Effects":["Resistance 1 - 00:25","Fire Resistance - 00:15","Glowing - 00:15"]},"Dilute Decay Potion":{"Name":"Dilute Decay Potion","Region":"Valley","Tier":"Tier 0","Type":"Splash","Location":"Valley Overworld","Effects":"Wither 1 - 00:10"},"Dilute Regeneration Potion":{"Name":"Dilute Regeneration Potion","Region":"Valley","Tier":"Tier 0","Type":"Splash","Location":"Valley Overworld","Effects":"Regeneration 1 - 00:10"},"Awful Ale":{"Name":"Awful Ale","Region":"Valley","Tier":"-","Type":"Potion","Location":"Valley Overworld","Effects":"Nausea - 00:20"},"Black Cat Brew":{"Name":"Black Cat Brew","Region":"Valley","Tier":"-","Type":"Potion","Location":"Valley Overworld","Effects":["Resistance 1 - 00:10","Jump Boost 6 - 00:10","Bad Luck 1 - 00:10"]},"Blackroot Brew":{"Name":"Blackroot Brew","Region":"Valley","Tier":"-","Type":"Potion","Location":"Valley Overworld","Effects":["Regeneration 2 - 01:00","Strength 1 - 01:00","Nausea - 00:05","Poison 1 - 00:30"]},"Blaze's Whiskey":{"Name":"Blaze's Whiskey","Region":"Valley","Tier":"-","Type":"Potion","Location":"Valley Overworld","Effects":["Resistance 1 - 00:20","Fire Resistance - 00:20","Nausea - 00:05"]},"Blue Potion":{"Name":"Blue Potion","Region":"Valley","Tier":"-","Type":"Potion","Location":"Valley Overworld","Effects":"Instant Health 3"},"Challenger's Liqueur":{"Name":"Challenger's Liqueur","Region":"Valley","Tier":"-","Type":"Splash","Location":"Valley Overworld","Effects":["Regeneration 1 - 02:00","Speed 1 - 10:00","Strength 1 - 10:00","Haste 1 - 10:00","Nausea - 00:05"]},"Cheap Beer":{"Name":"Cheap Beer","Region":"Valley","Tier":"-","Type":"Potion","Location":"Valley Overworld","Effects":"Nausea - 00:15"},"Cheaper Beer":{"Name":"Cheaper Beer","Region":"Valley","Tier":"-","Type":"Potion","Location":"Valley Overworld","Effects":"Nausea - 00:15"},"Cheapest Beer":{"Name":"Cheapest Beer","Region":"Valley","Tier":"-","Type":"Potion","Location":"Valley Overworld","Effects":"Nausea - 00:15"},"Divine Potion of Protection":{"Name":"Divine Potion of Protection","Region":"Valley","Tier":"-","Type":"Splash","Location":"Valley Overworld","Effects":"Absorption 3 - 01:30"},"Expensive Beer":{"Name":"Expensive Beer","Region":"Valley","Tier":"-","Type":"Potion","Location":"Valley Overworld","Effects":"Nausea - 00:15"},"Fisherman's Folly":{"Name":"Fisherman's Folly","Region":"Valley","Tier":"-","Type":"Potion","Location":"Valley Overworld","Effects":["Regeneration 1 - 03:00","Absorption 1 - 03:00","Bad Luck 1 - 03:00"]},"Imperial Stout":{"Name":"Imperial Stout","Region":"Valley","Tier":"-","Type":"Potion","Location":"Valley Overworld","Effects":["Absorption 1 - 00:30","Nausea - 00:05"]},"Less Cheap Beer":{"Name":"Less Cheap Beer","Region":"Valley","Tier":"-","Type":"Potion","Location":"Valley Overworld","Effects":"Nausea - 00:15"},"Minotaur's Wrath":{"Name":"Minotaur's Wrath","Region":"Valley","Tier":"-","Type":"Splash","Location":"Valley Overworld","Effects":["Resistance 1 - 00:20","Haste 1 - 00:20"]},"Pinot Grigio Wine":{"Name":"Pinot Grigio Wine","Region":"Valley","Tier":"-","Type":"Potion","Location":"Valley Overworld","Effects":["Speed 1 - 00:45","Nausea - 00:05"]},"Potion of Agility":{"Name":"Potion of Agility","Region":"Valley","Tier":"-","Type":"Potion","Location":"Valley Overworld","Effects":["Speed 1 - 02:30","Jump Boost 3 - 02:30"]},"Potion of Masterful Agility":{"Name":"Potion of Masterful Agility","Region":"Valley","Tier":"-","Type":"Potion","Location":"Valley Overworld","Effects":["Speed 2 - 15:00","Jump Boost 3 - 15:00"]},"Potion of Restoration":{"Name":"Potion of Restoration","Region":"Valley","Tier":"-","Type":"Splash","Location":"Valley Overworld","Effects":["Instant Health 2","Regeneration 2 - 00:10"]},"Potion of Water Breathing":{"Name":"Potion of Water Breathing","Region":"Valley","Tier":"-","Type":"Potion","Location":"Valley Overworld","Effects":"Water Breathing - 08:00"},"Ragebrew":{"Name":"Ragebrew","Region":"Valley","Tier":"-","Type":"Potion","Location":"Valley Overworld","Effects":["Resistance 1 - 06:00","Speed 1 - 06:00","Strength 1 - 06:00","Haste 1 - 06:00"]},"Red Mushroom Tincture":{"Name":"Red Mushroom Tincture","Region":"Valley","Tier":"-","Type":"Potion","Location":"Valley Overworld","Effects":["Strength 2 - 00:30","Slowness 1 - 00:45"]},"Red Potion":{"Name":"Red Potion","Region":"Valley","Tier":"-","Type":"Potion","Location":"Valley Overworld","Effects":"Instant Health 2"},"Silverblood":{"Name":"Silverblood","Region":"Valley","Tier":"-","Type":"Potion","Location":"Valley Overworld","Effects":["Resistance 1 - 00:30","Absorption 1 - 04:00","Speed 2 - 04:00"]},"Splash Potion of Speed":{"Name":"Splash Potion of Speed","Region":"Valley","Tier":"-","Type":"Splash","Location":"Valley Overworld","Effects":"Speed 2 - 01:30"},"Sunfish Rum":{"Name":"Sunfish Rum","Region":"Valley","Tier":"-","Type":"Potion","Location":"Valley Overworld","Effects":["Water Breathing - 01:30","Nausea - 00:05"]},"Supreme Roast":{"Name":"Supreme Roast","Region":"Valley","Tier":"-","Type":"Potion","Location":"Valley Overworld","Effects":"Speed 2 - 02:30"},"Swamp Goo":{"Name":"Swamp Goo","Region":"Valley","Tier":"-","Type":"Potion","Location":"Valley Overworld","Effects":["Water Breathing - 01:00","Nausea - 00:06"]},"Syrup":{"Name":"Syrup","Region":"Valley","Tier":"-","Type":"Potion","Location":"Valley Overworld","Effects":"Instant Health 1"},"Tlaxan Wine":{"Name":"Tlaxan Wine","Region":"Valley","Tier":"-","Type":"Potion","Location":"Valley Overworld","Effects":["Instant Health 2","Speed 1 - 00:45","Nausea - 00:10"]},"Very Dark Roast":{"Name":"Very Dark Roast","Region":"Valley","Tier":"-","Type":"Potion","Location":"Valley Overworld","Effects":["Resistance 2 - 00:10","Speed 1 - 01:30"]},"Volkamph's Snake Oil":{"Name":"Volkamph's Snake Oil","Region":"Valley","Tier":"-","Type":"Potion","Location":"Valley Overworld","Effects":""},"Water Lily Mixture":{"Name":"Water Lily Mixture","Region":"Valley","Tier":"-","Type":"Potion","Location":"Valley Overworld","Effects":["Speed 3 - 00:15","Instant Damage 2"]},"Worker's Pale Ale":{"Name":"Worker's Pale Ale","Region":"Valley","Tier":"-","Type":"Potion","Location":"Valley Overworld","Effects":["Haste 1 - 03:00","Nausea - 00:05"]},"Yellow Potion":{"Name":"Yellow Potion","Region":"Valley","Tier":"-","Type":"Potion","Location":"Valley Overworld","Effects":"Resistance 1 - 10:00"},"Zinfadel Wine":{"Name":"Zinfadel Wine","Region":"Valley","Tier":"-","Type":"Potion","Location":"Valley Overworld","Effects":["Haste 1 - 00:30","Nausea - 00:05"]},"Elixir of the Hawk":{"Name":"Elixir of the Hawk","Region":"Valley","Tier":"Unique","Type":"Splash","Location":"King's Valley","Effects":["Speed 2 - 02:00","Jump Boost 2 - 02:00"]},"Elixir of the Jaguar":{"Name":"Elixir of the Jaguar","Region":"Valley","Tier":"Unique","Type":"Potion","Location":"King's Valley","Effects":["Absorption 3 - 04:00","Strength 1 - 04:00","Haste 1 - 04:00"]},"Elixir of the Serpent":{"Name":"Elixir of the Serpent","Region":"Valley","Tier":"Unique","Type":"Splash","Location":"King's Valley","Effects":["Resistance 1 - 02:00","Haste 2 - 02:00","Slowness 2 - 02:00"]},"Jar of Clucks":{"Name":"Jar of Clucks","Region":"Valley","Tier":"Unique","Type":"Splash","Location":"King's Valley","Effects":"Instant Health 1"},"Happy Heart Potion":{"Name":"Happy Heart Potion","Region":"Valley","Tier":"Event","Type":"Splash","Location":"King's Valley","Effects":"Instant Health 1"},"Potion of Protection":{"Name":"Potion of Protection","Region":"Valley","Tier":"Tier 5","Type":"Splash","Location":"King's Valley","Effects":"Absorption 2 - 01:30"},"Revenant's Potion":{"Name":"Revenant's Potion","Region":"Valley","Tier":"Tier 5","Type":"Splash","Location":"King's Valley","Effects":"Instant Health 3"},"Strong Sanctify Potion":{"Name":"Strong Sanctify Potion","Region":"Valley","Tier":"Tier 5","Type":"Lingering","Location":"King's Valley","Effects":["Regeneration 3 - 00:03","Absorption 1 - 00:11"]},"Antidote":{"Name":"Antidote","Region":"Valley","Tier":"-","Type":"Splash","Location":"King's Valley","Effects":["Regeneration 3 - 00:06","Poison 3 - 00:01"]},"Bastion's Brew":{"Name":"Bastion's Brew","Region":"Valley","Tier":"-","Type":"Potion","Location":"King's Valley","Effects":["Regeneration 1 - 01:15","Strength 2 - 01:15","Slowness 3 - 01:15"]},"Berserk Potion":{"Name":"Berserk Potion","Region":"Valley","Tier":"-","Type":"Splash","Location":"King's Valley","Effects":["Speed 2 - 00:40","Strength 2 - 00:40"]},"Enderblood":{"Name":"Enderblood","Region":"Valley","Tier":"-","Type":"Potion","Location":"King's Valley","Effects":["Absorption 1 - 02:00","Speed 2 - 02:00"]},"Extinguisher":{"Name":"Extinguisher","Region":"Valley","Tier":"-","Type":"Splash","Location":"King's Valley","Effects":"Fire Resistance - 00:10"},"Flamekissed Ichor":{"Name":"Flamekissed Ichor","Region":"Valley","Tier":"-","Type":"Potion","Location":"King's Valley","Effects":"Fire Resistance - 02:00"},"Ironvein Tincture":{"Name":"Ironvein Tincture","Region":"Valley","Tier":"-","Type":"Splash","Location":"King's Valley","Effects":"Resistance 2 - 00:08"},"Miner's Brew":{"Name":"Miner's Brew","Region":"Valley","Tier":"-","Type":"Potion","Location":"King's Valley","Effects":["Speed 1 - 03:00","Haste 2 - 03:00"]},"Nereid Essence":{"Name":"Nereid Essence","Region":"Valley","Tier":"-","Type":"Potion","Location":"King's Valley","Effects":["Water Breathing - 04:00","Night Vision - 04:00"]},"Phantom Dew":{"Name":"Phantom Dew","Region":"Valley","Tier":"-","Type":"Splash","Location":"King's Valley","Effects":["Instant Health 2","Speed 1 - 00:20"]},"Potion of Might":{"Name":"Potion of Might","Region":"Valley","Tier":"-","Type":"Potion","Location":"King's Valley","Effects":["Resistance 1 - 02:30","Strength 1 - 02:30"]},"Potion of Salvation":{"Name":"Potion of Salvation","Region":"Valley","Tier":"-","Type":"Splash","Location":"King's Valley","Effects":["Regeneration 2 - 00:05","Absorption 2 - 00:30"]},"Sanctify Potion":{"Name":"Sanctify Potion","Region":"Valley","Tier":"-","Type":"Lingering","Location":"King's Valley","Effects":["Regeneration 2 - 00:03","Absorption 1 - 00:07"]},"Spider Essence":{"Name":"Spider Essence","Region":"Valley","Tier":"-","Type":"Splash","Location":"King's Valley","Effects":["Speed 1 - 00:30","Jump Boost 2 - 00:30"]},"Weak Sanctify Potion":{"Name":"Weak Sanctify Potion","Region":"Valley","Tier":"-","Type":"Lingering","Location":"King's Valley","Effects":"Regeneration 1 - 00:03"},"":{"Name":"","Region":"","Tier":"","Type":"","Location":"","Effects":""}}